{
   "type": "FeatureCollection",
   "features": [
  {
    "type": "Feature",
    "geometry": {
       "type": "Point",
       "coordinates":  [ 133.7751,-25.2744 ]
    },
    "properties": {
    "id":1,
    "location":"Australia",
    "1":0,
    "2":0,
    "3":0,
    "4":0,
    "5":3,
    "6":4,
    "7":4,
    "8":5,
    "9":7,
    "10":9,
    "11":9,
    "12":12,
    "13":12,
    "14":12,
    "15":12,
    "16":13
    }
  },
  {
    "type": "Feature",
    "geometry": {
       "type": "Point",
       "coordinates":  [ 4.4699,50.5039 ]
    },
    "properties": {
    "id":2,
    "location":"Belgium",
    "1":0,
    “2”:0,
    “3”:0,
    “4”:0,
    “5”:0,
    “6”:0,
    “7”:0,
    “8”:0,
    “9”:0,
    “10”:0,
    “11”:0,
    “12”:0,
    “13”:0,
    “14”:0,
    “15”:0,
    “16”:1
    }
  },
  {
    "type": "Feature",
    "geometry": {
       "type": "Point",
       "coordinates":  [ 104.991,12.5657 ]
    },
    "properties": {
    "id":3,
    "location":"Cambodia",
    “1”:0,
    “2”:0,
    “3”:0,
    “4”:0,
    “5”:0,
    “6”:0,
    “7”:0,
    “8”:0,
    “9”:1,
    “10”:1,
    “11”:1,
    “12”:1,
    “13”:1,
    “14”:1,
    “15”:1,
    “16”:1
    }
  },
  {
    "type": "Feature",
    "geometry": {
       "type": "Point",
       "coordinates":  [ -106.3468,56.1304 ]
    },
    "properties": {
    "id":4,
    "location":"Canada",
    “1”:0,
    “2”:0,
    “3”:0,
    “4”:0,
    “5”:0,
    “6”:0,
    “7”:1,
    “8”:2,
    “9”:3,
    “10”:3,
    “11”:3,
    “12”:4,
    “13”:4,
    “14”:4,
    “15”:4,
    “16”:5
    }
  },
  {
    "type": "Feature",
    "geometry": {
       "type": "Point",
       "coordinates":  [ 104.1954,35.8617 ]
    },
    "properties": {
    "id":5,
    "location":"China",
    “1”:278,
    “2”:310,
    “3”:574,
    “4”:835,
    “5”:1297,
    “6”:1985,
    “7”:2761,
    “8”:4537,
    “9”:5997,
    “10”:9720,
    “11”:9720,
    “12”:11821,
    “13”:14411,
    “14”:17238,
    “15”:20471,
    “16”:24363
    }
  },
  {
    "type": "Feature",
    "geometry": {
       "type": "Point",
       "coordinates":  [ 25.7482,61.9241 ]
    },
    "properties": {
    "id":6,
    "location":"Finland",
    “1”:0,
    “2”:0,
    “3”:0,
    “4”:0,
    “5”:0,
    “6”:0,
    “7”:0,
    “8”:0,
    “9”:0,
    “10”:1,
    “11”:1,
    “12”:1,
    “13”:1,
    “14”:1,
    “15”:1,
    “16”:1
    }
  },
  {
    "type": "Feature",
    "geometry": {
       "type": "Point",
       "coordinates":  [ 2.2137,46.2276 ]
    },
    "properties": {
    "id":7,
    "location":"France",
    “1”:0,
    “2”:0,
    “3”:0,
    “4”:0,
    “5”:3,
    “6”:0,
    “7”:3,
    “8”:3,
    “9”:4,
    “10”:6,
    “11”:6,
    “12”:6,
    “13”:6,
    “14”:6,
    “15”:6,
    “16”:6
    }
  },
  {
    "type": "Feature",
    "geometry": {
       "type": "Point",
       "coordinates":  [ 10.4515,51.1657 ]
    },
    "properties": {
    "id":8,
    "location":"Germany",
    “1”:0,
    “2”:0,
    “3”:0,
    “4”:0,
    “5”:0,
    “6”:0,
    “7”:0,
    “8”:1,
    “9”:4,
    “10”:5,
    “11”:5,
    “12”:7,
    “13”:8,
    “14”:10,
    “15”:12,
    “16”:12
    }
  },
  {
    "type": "Feature",
    "geometry": {
       "type": "Point",
       "coordinates":  [ 78.9629,20.5937 ]
    },
    "properties": {
    "id":9,
    "location":"India",
    “1”:0,
    “2”:0,
    “3”:0,
    “4”:0,
    “5”:0,
    “6”:0,
    “7”:0,
    “8”:0,
    “9”:0,
    “10”:1,
    “11”:1,
    “12”:1,
    “13”:2,
    “14”:3,
    “15”:3,
    “16”:3
    }
  },
  {
    "type": "Feature",
    "geometry": {
       "type": "Point",
       "coordinates":  [ 12.5674,41.8719 ]
    },
    "properties": {
    "id":10,
    "location":"Italy",
    “1”:0,
    “2”:0,
    “3”:0,
    “4”:0,
    “5”:0,
    “6”:0,
    “7”:0,
    “8”:0,
    “9”:0,
    “10”:2,
    “11”:2,
    “12”:2,
    “13”:2,
    “14”:2,
    “15”:2,
    “16”:2
    }
  },
  {
    "type": "Feature",
    "geometry": {
       "type": "Point",
       "coordinates":  [ 138.2529,36.2048 ]
    },
    "properties": {
    "id":11,
    "location":"Japan",
    “1”:1,
    “2”:1,
    “3”:1,
    “4”:1,
    “5”:3,
    “6”:3,
    “7”:4,
    “8”:6,
    “9”:7,
    “10”:14,
    “11”:14,
    “12”:17,
    “13”:20,
    “14”:20,
    “15”:20,
    “16”:33
    }
  },
  {
    "type": "Feature",
    "geometry": {
       "type": "Point",
       "coordinates":  [ 101.9758,4.2105 ]
    },
    "properties": {
    "id":12,
    "location":"Malaysia",
    “1”:0,
    “2”:0,
    “3”:0,
    “4”:0,
    “5”:0,
    “6”:3,
    “7”:4,
    “8”:4,
    “9”:4,
    “10”:8,
    “11”:8,
    “12”:8,
    “13”:8,
    “14”:8,
    “15”:10,
    “16”:10
    }
  },
  {
    "type": "Feature",
    "geometry": {
       "type": "Point",
       "coordinates":  [ 84.124,28.3949 ]
    },
    "properties": {
    "id":13,
    "location":"Nepal",
    “1”:0,
    “2”:0,
    “3”:0,
    “4”:0,
    “5”:1,
    “6”:0,
    “7”:1,
    “8”:1,
    “9”:1,
    “10”:1,
    “11”:1,
    “12”:1,
    “13”:1,
    “14”:1,
    “15”:1,
    “16”:1
    }
  },
  {
    "type": "Feature",
    "geometry": {
       "type": "Point",
       "coordinates":  [ 121.774,12.8797 ]
    },
    "properties": {
    "id":14,
    "location":"Philippines",
    “1”:0,
    “2”:0,
    “3”:0,
    “4”:0,
    “5”:0,
    “6”:0,
    “7”:0,
    “8”:0,
    “9”:0,
    “10”:1,
    “11”:1,
    “12”:1,
    “13”:2,
    “14”:2,
    “15”:2,
    “16”:3
    }
  },
  {
    "type": "Feature",
    "geometry": {
       "type": "Point",
       "coordinates":  [ 127.7669,35.9078 ]
    },
    "properties": {
    "id":15,
    "location":"Republic of Korea",
    “1”:1,
    “2”:1,
    “3”:1,
    “4”:2,
    “5”:2,
    “6”:2,
    “7”:4,
    “8”:4,
    “9”:4,
    “10”:11,
    “11”:11,
    “12”:12,
    “13”:15,
    “14”:15,
    “15”:16,
    “16”:18
    }
  },
  {
    "type": "Feature",
    "geometry": {
       "type": "Point",
       "coordinates":  [ 105.3188,61.524 ]
    },
    "properties": {
    "id":16,
    "location":"Russia",
    “1”:0,
    “2”:0,
    “3”:0,
    “4”:0,
    “5”:0,
    “6”:0,
    “7”:0,
    “8”:0,
    “9”:0,
    “10”:0,
    “11”:0,
    “12”:2,
    “13”:2,
    “14”:2,
    “15”:2,
    “16”:2
    }
  },
  {
    "type": "Feature",
    "geometry": {
       "type": "Point",
       "coordinates":  [ 103.8198,1.3521 ]
    },
    "properties": {
    "id":17,
    "location":"Singapore",
    “1”:0,
    “2”:0,
    “3”:0,
    “4”:1,
    “5”:3,
    “6”:4,
    “7”:4,
    “8”:7,
    “9”:7,
    “10”:13,
    “11”:13,
    “12”:16,
    “13”:18,
    “14”:18,
    “15”:18,
    “16”:24
    }
  },
  {
    "type": "Feature",
    "geometry": {
       "type": "Point",
       "coordinates":  [ -1.9898,40.4637 ]
    },
    "properties": {
    "id":18,
    "location":"Spain",
    “1”:0,
    “2”:0,
    “3”:0,
    “4”:0,
    “5”:0,
    “6”:0,
    “7”:0,
    “8”:0,
    “9”:0,
    “10”:0,
    “11”:0,
    “12”:1,
    “13”:1,
    “14”:1,
    “15”:1,
    “16”:1
    }
  },
  {
    "type": "Feature",
    "geometry": {
       "type": "Point",
       "coordinates":  [ 80.7718,7.8731 ]
    },
    "properties": {
    "id":19,
    "location":"Sri Lanka",
    “1”:0,
    “2”:0,
    “3”:0,
    “4”:0,
    “5”:0,
    “6”:0,
    “7”:0,
    “8”:1,
    “9”:1,
    “10”:1,
    “11”:1,
    “12”:1,
    “13”:1,
    “14”:1,
    “15”:1,
    “16”:1
    }
  },
  {
    "type": "Feature",
    "geometry": {
       "type": "Point",
       "coordinates":  [ 18.6435,60.1282 ]
    },
    "properties": {
    "id":20,
    "location":"Sweden",
    “1”:0,
    “2”:0,
    “3”:0,
    “4”:0,
    “5”:0,
    “6”:0,
    “7”:0,
    “8”:0,
    “9”:0,
    “10”:0,
    “11”:0,
    “12”:1,
    “13”:1,
    “14”:1,
    “15”:1,
    “16”:1
    }
  },
  {
    "type": "Feature",
    "geometry": {
       "type": "Point",
       "coordinates":  [ 100.9925,15.87 ]
    },
    "properties": {
    "id":21,
    "location":"Thailand",
    “1”:2,
    “2”:2,
    “3”:4,
    “4”:4,
    “5”:4,
    “6”:5,
    “7”:5,
    “8”:0,
    “9”:14,
    “10”:14,
    “11”:14,
    “12”:19,
    “13”:19,
    “14”:19,
    “15”:19,
    “16”:25
    }
  },
  {
    "type": "Feature",
    "geometry": {
       "type": "Point",
       "coordinates":  [ 53.8478,23.4241 ]
    },
    "properties": {
    "id":22,
    "location":"United Arab Emirates",
    “1”:0,
    “2”:0,
    “3”:0,
    “4”:0,
    “5”:0,
    “6”:0,
    “7”:0,
    “8”:0,
    “9”:4,
    “10”:4,
    “11”:4,
    “12”:4,
    “13”:5,
    “14”:5,
    “15”:5,
    “16”:5
    }
  },
  {
    "type": "Feature",
    "geometry": {
       "type": "Point",
       "coordinates":  [ -95.7129,37.0902 ]
    },
    "properties": {
    "id":23,
    "location":"United States",
    “1”:0,
    “2”:0,
    “3”:1,
    “4”:1,
    “5”:2,
    “6”:2,
    “7”:5,
    “8”:5,
    “9”:5,
    “10”:6,
    “11”:6,
    “12”:7,
    “13”:8,
    “14”:11,
    “15”:11,
    “16”:11
    }
  },
  {
    "type": "Feature",
    "geometry": {
       "type": "Point",
       "coordinates":  [ -1.5444,53.3781 ]
    },
    "properties": {
    "id":24,
    "location":"UK",
    “1”:0,
    “2”:0,
    “3”:0,
    “4”:0,
    “5”:0,
    “6”:0,
    “7”:0,
    “8”:0,
    “9”:0,
    “10”:0,
    “11”:0,
    “12”:2,
    “13”:2,
    “14”:2,
    “15”:2,
    “16”:1
    }
  },
  {
    "type": "Feature",
    "geometry": {
       "type": "Point",
       "coordinates":  [ 108.2772,14.0583 ]
    },
    "properties": {
    "id":25,
    "location":"Vietnam",
    “1”:0,
    “2”:0,
    “3”:0,
    “4”:2,
    “5”:2,
    “6”:2,
    “7”:2,
    “8”:2,
    “9”:2,
    “10”:5,
    “11”:5,
    “12”:6,
    “13”:7,
    “14”:8,
    “15”:9,
    “16”:10
    }
  }
