{
   "type": "FeatureCollection",
   "features": [
  {
    "type": "Feature",
    "geometry": {
       "type": "Point",
       "coordinates":  [ -96.70230556,40.80666667 ]
    },
    "properties": {
    "Restaurants":"Billy's",
    "Price":"$$$",
    "Vegan-friendly":"No",
    "Vegetarian-friendly":"Yes",
    "Gluten-friendly":"No",
    "Type of Food":"American",
    "Website":"http://www.billysrestaurant.com/"
    }
  },
  {
    "type": "Feature",
    "geometry": {
       "type": "Point",
       "coordinates":  [ -96.70530556,40.81447222 ]
    },
    "properties": {
    "Restaurants":"DISH",
    "Price":"$$$",
    "Vegan-friendly":"Yes",
    "Vegetarian-friendly":"Yes",
    "Gluten-friendly":"Yes",
    "Type of Food":"American",
    "Website":"https://dishdowntown.com/"
    }
  },
  {
    "type": "Feature",
    "geometry": {
       "type": "Point",
       "coordinates":  [ -96.705296,40.814973 ]
    },
    "properties": {
    "Restaurants":"Misty's",
    "Price":"$$$",
    "Vegan-friendly":"Yes",
    "Vegetarian-friendly":"Yes",
    "Gluten-friendly":"No",
    "Type of Food":"Steakhouse",
    "Website":"https://www.mistyslincoln.com/Home"
    }
  },
  {
    "type": "Feature",
    "geometry": {
       "type": "Point",
       "coordinates":  [ -96.710583,40.814551 ]
    },
    "properties": {
    "Restaurants":"Rodizio Grill",
    "Price":"$$$",
    "Vegan-friendly":"No",
    "Vegetarian-friendly":"No",
    "Gluten-friendly":"No",
    "Type of Food":"Brazillian",
    "Website":"https://www.rodiziogrill.com/"
    }
  },
  {
    "type": "Feature",
    "geometry": {
       "type": "Point",
       "coordinates":  [ -96.71019444,40.81505556 ]
    },
    "properties": {
    "Restaurants":"The Oven",
    "Price":"$$",
    "Vegan-friendly":"Yes",
    "Vegetarian-friendly":"No",
    "Gluten-friendly":"No",
    "Type of Food":"Indian",
    "Website":"https://theoven-lincoln.com/locations-and-menus/haymarket"
    }
  },
  {
    "type": "Feature",
    "geometry": {
       "type": "Point",
       "coordinates":  [ -96.70658333,40.81447222 ]
    },
    "properties": {
    "Restaurants":"Single Barrel",
    "Price":"$$",
    "Vegan-friendly":"No",
    "Vegetarian-friendly":"No",
    "Gluten-friendly":"No",
    "Type of Food":"Steakhouse",
    "Website":"http://thesinglebarrel.com/"
    }
  },
  {
    "type": "Feature",
    "geometry": {
       "type": "Point",
       "coordinates":  [ -96.71080556,40.81502778 ]
    },
    "properties": {
    "Restaurants":"Lazlo's",
    "Price":"$$",
    "Vegan-friendly":"No",
    "Vegetarian-friendly":"Yes",
    "Gluten-friendly":"Yes",
    "Type of Food":"Brewpub",
    "Website":"http://www.lazlosbreweryandgrill.com/"
    }
  },
  {
    "type": "Feature",
    "geometry": {
       "type": "Point",
       "coordinates":  [ -96.71213889,40.8165 ]
    },
    "properties": {
    "Restaurants":"Hiro 88",
    "Price":"$$",
    "Vegan-friendly":"No",
    "Vegetarian-friendly":"Yes",
    "Gluten-friendly":"No",
    "Type of Food":"Pan-Asian",
    "Website":"https://hiro88.com/"
    }
  },
  {
    "type": "Feature",
    "geometry": {
       "type": "Point",
       "coordinates":  [ -96.71022222,40.81608333 ]
    },
    "properties": {
    "Restaurants":"Leadbelly",
    "Price":"$$",
    "Vegan-friendly":"No",
    "Vegetarian-friendly":"Yes",
    "Gluten-friendly":"No",
    "Type of Food":"American",
    "Website":"https://www.getleaded.com/"
    }
  },
  {
    "type": "Feature",
    "geometry": {
       "type": "Point",
       "coordinates":  [ -96.70666667,40.81083333 ]
    },
    "properties": {
    "Restaurants":"Green Gateau",
    "Price":"$$",
    "Vegan-friendly":"Yes",
    "Vegetarian-friendly":"Yes",
    "Gluten-friendly":"Yes",
    "Type of Food":"French, Bistro",
    "Website":"https://www.greengateau.com/"
    }
  },
  {
    "type": "Feature",
    "geometry": {
       "type": "Point",
       "coordinates":  [ -96.71016667,40.81555556 ]
    },
    "properties": {
    "Restaurants":"Buzzard Billy's",
    "Price":"$$",
    "Vegan-friendly":"No",
    "Vegetarian-friendly":"Yes",
    "Gluten-friendly":"No",
    "Type of Food":"American, Creole, Cajun",
    "Website":"https://www.buzzardbillys.com/lincoln/"
    }
  },
  {
    "type": "Feature",
    "geometry": {
       "type": "Point",
       "coordinates":  [ -96.7095,40.81741667 ]
    },
    "properties": {
    "Restaurants":"Blue Sushi Sake Grill",
    "Price":"$$",
    "Vegan-friendly":"Yes",
    "Vegetarian-friendly":"Yes",
    "Gluten-friendly":"Yes",
    "Type of Food":"Sushi",
    "Website":"https://bluesushisakegrill.com/locations/nebraska/lincoln/haymarket"
    }
  },
  {
    "type": "Feature",
    "geometry": {
       "type": "Point",
       "coordinates":  [ -96.71219444,40.81686111 ]
    },
    "properties": {
    "Restaurants":"Mellow Mushroom",
    "Price":"$$",
    "Vegan-friendly":"Yes",
    "Vegetarian-friendly":"Yes",
    "Gluten-friendly":"Yes",
    "Type of Food":"Pizza",
    "Website":"https://mellowmushroom.com/location/ne-lincoln-601-r-st-ste-110-68508/"
    }
  },
  {
    "type": "Feature",
    "geometry": {
       "type": "Point",
       "coordinates":  [ -96.7095,40.81497222 ]
    },
    "properties": {
    "Restaurants":"Vincenzo's",
    "Price":"$$",
    "Vegan-friendly":"No",
    "Vegetarian-friendly":"Yes",
    "Gluten-friendly":"No",
    "Type of Food":"Italian",
    "Website":"https://vincenzos-ne.com/"
    }
  },
  {
    "type": "Feature",
    "geometry": {
       "type": "Point",
       "coordinates":  [ -96.70772222,40.81416667 ]
    },
    "properties": {
    "Restaurants":"Blue Orchid Thai",
    "Price":"$$",
    "Vegan-friendly":"Yes",
    "Vegetarian-friendly":"Yes",
    "Gluten-friendly":"No",
    "Type of Food":"Thai",
    "Website":"https://www.restaurantji.com/ne/lincoln/blue-orchid-thai-restaurant-/"
    }
  },
  {
    "type": "Feature",
    "geometry": {
       "type": "Point",
       "coordinates":  [ -96.70736111,40.81430556 ]
    },
    "properties": {
    "Restaurants":"Grey Whale ",
    "Price":"$$",
    "Vegan-friendly":"Yes",
    "Vegetarian-friendly":"Yes",
    "Gluten-friendly":"No",
    "Type of Food":"Sushi, Pan-Asian",
    "Website":"https://www.greywhalesushi.com/"
    }
  },
  {
    "type": "Feature",
    "geometry": {
       "type": "Point",
       "coordinates":  [ -96.70972222,40.81563889 ]
    },
    "properties": {
    "Restaurants":"Screamers Dining and Cabaret",
    "Price":"$$",
    "Vegan-friendly":"Yes",
    "Vegetarian-friendly":"Yes",
    "Gluten-friendly":"No",
    "Type of Food":"American",
    "Website":"https://www.screamersdining.com/"
    }
  },
  {
    "type": "Feature",
    "geometry": {
       "type": "Point",
       "coordinates":  [ -96.71155556,40.81613889 ]
    },
    "properties": {
    "Restaurants":"BurgerFi",
    "Price":"$$",
    "Vegan-friendly":"Yes",
    "Vegetarian-friendly":"Yes",
    "Gluten-friendly":"No",
    "Type of Food":"American",
    "Website":"https://order.burgerfi.com/locations/NE/lincoln/20463"
    }
  },
  {
    "type": "Feature",
    "geometry": {
       "type": "Point",
       "coordinates":  [ -96.71133333,40.81616667 ]
    },
    "properties": {
    "Restaurants":"Gate 25",
    "Price":"$$",
    "Vegan-friendly":"No",
    "Vegetarian-friendly":"Yes",
    "Gluten-friendly":"No",
    "Type of Food":"American",
    "Website":"https://gate25lnk.com/"
    }
  },
  {
    "type": "Feature",
    "geometry": {
       "type": "Point",
       "coordinates":  [ -96.70358333,40.81541667 ]
    },
    "properties": {
    "Restaurants":"Rutabagas",
    "Price":"$$",
    "Vegan-friendly":"Yes",
    "Vegetarian-friendly":"Yes",
    "Gluten-friendly":"Yes",
    "Type of Food":"Plant-based, American",
    "Website":"https://www.eatrutabagas.com/"
    }
  },
  {
    "type": "Feature",
    "geometry": {
       "type": "Point",
       "coordinates":  [ -96.70222222,40.81327778 ]
    },
    "properties": {
    "Restaurants":"Sultan's Kite",
    "Price":"$",
    "Vegan-friendly":"No",
    "Vegetarian-friendly":"Yes",
    "Gluten-friendly":"No",
    "Type of Food":"Mediterranean, Halal",
    "Website":"https://sultanskite.com/"
    }
  },
  {
    "type": "Feature",
    "geometry": {
       "type": "Point",
       "coordinates":  [ -96.70097222,40.81394444 ]
    },
    "properties": {
    "Restaurants":"Ali Baba Gyros",
    "Price":"$",
    "Vegan-friendly":"No",
    "Vegetarian-friendly":"Yes",
    "Gluten-friendly":"No",
    "Type of Food":"Greek, Mediterranean, Halal",
    "Website":"https://www.facebook.com/AliBabaGyros"
    }
  },
  {
    "type": "Feature",
    "geometry": {
       "type": "Point",
       "coordinates":  [ -96.69997222,40.81344444 ]
    },
    "properties": {
    "Restaurants":"AmuManu",
    "Price":"$",
    "Vegan-friendly":"Yes",
    "Vegetarian-friendly":"Yes",
    "Gluten-friendly":"Yes",
    "Type of Food":"Asian",
    "Website":"https://www.amumanuramenbar.com/"
    }
  },
  {
    "type": "Feature",
    "geometry": {
       "type": "Point",
       "coordinates":  [ -96.70291667,40.81544444 ]
    },
    "properties": {
    "Restaurants":"Thai Garden",
    "Price":"$",
    "Vegan-friendly":"No",
    "Vegetarian-friendly":"Yes",
    "Gluten-friendly":"No",
    "Type of Food":"Thai",
    "Website":"https://downtownlincoln.org/go/thai-garden"
    }
  },
  {
    "type": "Feature",
    "geometry": {
       "type": "Point",
       "coordinates":  [ -96.70894444,40.81563889 ]
    },
    "properties": {
    "Restaurants":"Barry's",
    "Price":"$",
    "Vegan-friendly":"No",
    "Vegetarian-friendly":"No",
    "Gluten-friendly":"Yes",
    "Type of Food":"American",
    "Website":"https://barrysbarandgrill.com/"
    }
  },
  {
    "type": "Feature",
    "geometry": {
       "type": "Point",
       "coordinates":  [ -96.70452778,40.81497222 ]
    },
    "properties": {
    "Restaurants":"Qdoba",
    "Price":"$",
    "Vegan-friendly":"Yes",
    "Vegetarian-friendly":"Yes",
    "Gluten-friendly":"Yes",
    "Type of Food":"Mexican",
    "Website":"https://locations.qdoba.com/us/ne/lincoln/211-n-12th-st.html"
    }
  },
  {
    "type": "Feature",
    "geometry": {
       "type": "Point",
       "coordinates":  [ -96.70238889,40.81575 ]
    },
    "properties": {
    "Restaurants":"Chipotle",
    "Price":"$",
    "Vegan-friendly":"Yes",
    "Vegetarian-friendly":"Yes",
    "Gluten-friendly":"Yes",
    "Type of Food":"Mexican",
    "Website":"https://locations.chipotle.com/ne/lincoln/1317-q-st"
    }
  },
  {
    "type": "Feature",
    "geometry": {
       "type": "Point",
       "coordinates":  [ -96.70180556,40.81566667 ]
    },
    "properties": {
    "Restaurants":"Panda Express",
    "Price":"$",
    "Vegan-friendly":"No",
    "Vegetarian-friendly":"No",
    "Gluten-friendly":"No",
    "Type of Food":"Chinese",
    "Website":"https://www.pandaexpress.com/userlocation/2190/ne/lincoln/1317-q-street-suite-140"
    }
  },
  {
    "type": "Feature",
    "geometry": {
       "type": "Point",
       "coordinates":  [ -96.70141667,40.81491667 ]
    },
    "properties": {
    "Restaurants":"Raising Cane's",
    "Price":"$",
    "Vegan-friendly":"No",
    "Vegetarian-friendly":"No",
    "Gluten-friendly":"No",
    "Type of Food":"American",
    "Website":"https://raisingcanes.com/location/nebraska/lincoln/love-shack"
    }
  },
  {
    "type": "Feature",
    "geometry": {
       "type": "Point",
       "coordinates":  [ -96.70236111,40.81541667 ]
    },
    "properties": {
    "Restaurants":"Blaze Pizza",
    "Price":"$",
    "Vegan-friendly":"Yes",
    "Vegetarian-friendly":"Yes",
    "Gluten-friendly":"Yes",
    "Type of Food":"Pizza",
    "Website":"https://hq.blazepizza.com/locations/lincoln/"
    }
  }
]
}
